{
  "App": {
    "SelfUrl": "https://localhost:44313"
  },
  "EPPlus": {
    "ExcelPackage": {
      "LicenseContext": "NonCommercial"
    }
  },
  "Settings": {
    "Abp.Account.IsSelfRegistrationEnabled": false
  },
  "ConnectionStrings": {
    "Default": "mongodb://localhost:27017/ForecastingDashboard"
  },
  "AuthServer": {
    "Authority": "https://localhost:44313",
    "RequireHttpsMetadata": "false"
  },
  "StringEncryption": {
    "DefaultPassPhrase": "fTGUqOY3RtiWa3tI"
  },
  "GeologicalData":{
    "Barangays":[
      {
        "Name":"Cabangcalan",
        "Lat":6.97942,
        "Lng":126.00529
      },
      {
        "Name":"Caganganan",
        "Lat":6.94406,
        "Lng":126.01645
      },
      {
        "Name":"Calubihan",
        "Lat":6.97448,
        "Lng":125.98975
      },
      {
        "Name":"Causwagan",
        "Lat":7.01486, 
        "Lng":126.02065
      },
      {
        "Name":"Mahayag",
        "Lat":7.15421, 
        "Lng":126.15772
      },
      {
        "Name":"Maputi",
        "Lat":7.01554, 
        "Lng":125.99173
      },
      {
        "Name":"Mogbongcogon",
        "Lat":6.9352,
        "Lng": 125.99052
      },
      {
        "Name":"Panikian",
        "Lat":6.99416, 
        "Lng":126.02941
      },
      {
        "Name":"Pintatagan",
        "Lat":7.06529, 
        "Lng":125.96272
      },
      {
        "Name":"Piso",
        "Lat":6.9974, 
        "Lng":125.99439
      },
      {
        "Name":"Poblacion",
        "Lat":6.96144, 
        "Lng":126.01336
      },
      {
        "Name":"Punta Linao",
        "Lat":7.05652, 
        "Lng":125.95259
      },
      {
        "Name":"Rang-ay",
        "Lat":6.96315, 
        "Lng":125.9961
      },
      {
        "Name":"San Vicente",
        "Lat":6.99637, 
        "Lng":126.01044
      }
    ]
  }
}
